[
  {
    "_id": "64ba1ed290bfe9f50c8791f1",
    "PointOfInterestTypeId": 1,
    "Title": "Yatsusankan",
    "AlternateName": null,
    "AbbreviatedName": null,
    "Description": "",
    "AddressLine1": "1 Chome-8-27 Furukawacho Mukaimachi",
    "AddressLine2": "",
    "AddressLine3": "",
    "City": "Hida",
    "Province": "Gifu",
    "PostalCode": "509-4241",
    "Country": "jp",
    "Latitude": 36.2330294,
    "Longitude": 137.1878209
  },
  {
    "_id": "64ba1ed7b70bac6213b72986",
    "PointOfInterestTypeId": 4,
    "Title": "Tokyo International Airport",
    "AbbreviatedName": "HND",
    "AlternateName": "Haneda Airport",
    "Description": "",
    "AddressLine1": "Hanedakuko",
    "AddressLine2": "",
    "AddressLine3": "",
    "City": "Ota City",
    "Province": "Tokyo",
    "PostalCode": "144-0041",
    "Country": "jp",
    "Latitude": 35.5493932,
    "Longitude": 139.7798386
  },
  {
    "_id": "64ba1edd3705bad0ede4eacc",
    "PointOfInterestTypeId": 4,
    "Title": "Narita International Airport",
    "AlternateName": "Narita Airport",
    "AbbreviatedName": "NRT",
    "Description": "",
    "AddressLine1": "1-1 Furugome",
    "AddressLine2": "",
    "AddressLine3": "",
    "City": "Narita",
    "Province": "Chiba",
    "PostalCode": "282-0004",
    "Country": "jp",
    "Latitude": 35.7721866,
    "Longitude": 140.3879893
  },
  {
    "_id": "64ba1ee7cb63140ffee08ba8",
    "PointOfInterestTypeId": 4,
    "Title": "Kansai International Airport",
    "AbbreviatedName": "KIX",
    "AlternateName": "",
    "Description": "",
    "AddressLine1": "1 Senshukukokita",
    "AddressLine2": "",
    "AddressLine3": "",
    "City": "Izumisano",
    "Province": "Osaka",
    "PostalCode": "549-0001",
    "Country": "jp",
    "Latitude": 34.4320068,
    "Longitude": 135.2278136
  },
  {
    "_id": "64ba1ef00b687736e7913ce1",
    "PointOfInterestTypeId": 4,
    "Title": "Itami Airport",
    "AbbreviatedName": "ITM",
    "AlternateName": "",
    "Description": "",
    "AddressLine1": "3 Chome-555 Hotarugaike Nishimachi",
    "AddressLine2": "",
    "AddressLine3": "",
    "City": "Toyonaka",
    "Province": "Osaka",
    "PostalCode": "560-0036",
    "Country": "jp",
    "Latitude": 34.4320068,
    "Longitude": 135.2278136
  },
  {
    "_id": "64ba1ef7e909dc382fddb7a1",
    "PointOfInterestTypeId": 1,
    "Title": "Hotel Trusty Osaka Abeno",
    "AbbreviatedName": null,
    "AlternateName": "",
    "Description": "",
    "AddressLine1": "1 Chome-5-10-300 Abenosuji",
    "AddressLine2": "",
    "AddressLine3": "",
    "City": "Abeno Ward",
    "Province": "Osaka",
    "PostalCode": "545-0052",
    "Country": "jp",
    "Latitude": 34.646162,
    "Longitude": 135.5123041
  },
  {
    "_id": "64ba1efc6cdeda2fcfa5adbf",
    "PointOfInterestTypeId": 1,
    "Title": "Mitsui Garden Hotel Kyobashi",
    "AbbreviatedName": null,
    "AlternateName": "",
    "Description": "",
    "AddressLine1": "1 Chome-3-6 Kyobashi",
    "AddressLine2": "",
    "AddressLine3": "",
    "City": "Chuo City",
    "Province": "Tokyo",
    "PostalCode": "104-0031",
    "Country": "jp",
    "Latitude": 35.6784447,
    "Longitude": 139.7708061
  },
  {
    "_id": "64ba1f0369da4fe93ce1f77a",
    "PointOfInterestTypeId": 1,
    "Title": "Dormy Inn Premium Kyoto Ekimae",
    "AbbreviatedName": null,
    "AlternateName": "",
    "Description": "",
    "AddressLine1": "558-8 Higashishiokojicho",
    "AddressLine2": "",
    "AddressLine3": "",
    "City": "Shimogyo Ward,",
    "Province": "Kyoto",
    "PostalCode": "600-8216",
    "Country": "jp",
    "Latitude": 34.9874424,
    "Longitude": 135.7619008
  },
  {
    "_id": "64ba1f0751e737181f479ef3",
    "PointOfInterestTypeId": 1,
    "Title": "Hoshino Resorts OiraseKeiryuHotel",
    "AbbreviatedName": null,
    "AlternateName": "",
    "Description": "",
    "AddressLine1": "Tochikubo-231 Okuse",
    "AddressLine2": "",
    "AddressLine3": "",
    "City": "Towada",
    "Province": "Aomori",
    "PostalCode": "034-0301",
    "Country": "jp",
    "Latitude": 40.5757244,
    "Longitude": 140.9817282
  },
  {
    "_id": "64ba1f0f5ccef07951b99306",
    "PointOfInterestTypeId": 3,
    "Title": "Shin-Aomori Station",
    "AbbreviatedName": null,
    "AlternateName": "",
    "Description": "",
    "AddressLine1": "Ishie",
    "AddressLine2": "",
    "AddressLine3": "",
    "City": "Aomori",
    "Province": "Aomori",
    "PostalCode": "038-0003",
    "Country": "jp",
    "Latitude": 40.8281932,
    "Longitude": 140.6934715
  },
  {
    "_id": "64ba1f1554de10fc71367450",
    "PointOfInterestTypeId": 1,
    "Title": "Nipponia Tawaramoto Maruto Soy Source",
    "AbbreviatedName": null,
    "AlternateName": "",
    "Description": "",
    "AddressLine1": "170 Iyodo",
    "AddressLine2": "Shiki District",
    "AddressLine3": "",
    "City": "Tawaramoto",
    "Province": "Nara",
    "PostalCode": "636-0243",
    "Country": "jp",
    "Latitude": 34.5496486,
    "Longitude": 135.8162352
  },
  {
    "_id": "64ba1f1aeacb5216b0022eb2",
    "PointOfInterestTypeId": 1,
    "Title": "Misaki lodge",
    "AbbreviatedName": null,
    "AlternateName": "",
    "Description": "",
    "AddressLine1": "2864 Shionomisaki",
    "AddressLine2": "Higashimuro District",
    "AddressLine3": "",
    "City": "Kushimoto",
    "Province": "Wakayama",
    "PostalCode": "649-3502",
    "Country": "jp",
    "Latitude": 33.43755,
    "Longitude": 135.7590534
  },
  {
    "_id": "64ba1f2d10aa325d6fe19935",
    "PointOfInterestTypeId": 1,
    "Title": "Ryouri Mankou",
    "AbbreviatedName": null,
    "AlternateName": "",
    "Description": "",
    "AddressLine1": "42-17",
    "AddressLine2": "Higashimuro District",
    "AddressLine3": "",
    "City": "Kushimoto",
    "Province": "Wakayama",
    "PostalCode": "649-3503",
    "Country": "jp",
    "Latitude": 33.4745649,
    "Longitude": 135.7817553
  },
  {
    "_id": "64ba1f244870872c67d0b3e4",
    "PointOfInterestTypeId": 5,
    "Title": "Kishimoto Station",
    "AbbreviatedName": null,
    "AlternateName": "",
    "Description": "",
    "AddressLine1": "42-17",
    "AddressLine2": "Higashimuro District",
    "AddressLine3": "",
    "City": "Kushimoto",
    "Province": "Wakayama",
    "PostalCode": "649-3503",
    "Country": "jp",
    "Latitude": 34.5744925,
    "Longitude": 135.5927096
  },
  {
    "_id": "64ba1f31109ac11f7d359aef",
    "PointOfInterestTypeId": 5,
    "Title": "Asuka Station",
    "AbbreviatedName": null,
    "AlternateName": "",
    "Description": "",
    "AddressLine1": "Koshi",
    "AddressLine2": "Takaichi District",
    "AddressLine3": "",
    "City": "Asuka",
    "Province": "Nara",
    "PostalCode": "634-0138",
    "Country": "jp",
    "Latitude": 33.4745649,
    "Longitude": 135.7817553
  },
  {
    "_id": "64ba1f3df0ceba47125d9b61",
    "PointOfInterestTypeId": 5,
    "Title": "Osaka Abenobashi Station",
    "AlternateName": "",
    "AbbreviatedName": null,
    "Description": "",
    "AddressLine1": "1 Chome-1-43 Abenosuji",
    "AddressLine2": "Abeno Ward",
    "AddressLine3": "",
    "City": "Osaka",
    "Province": "Osaka",
    "PostalCode": "545-0052",
    "Country": "jp",
    "Latitude": 34.6454938,
    "Longitude": 135.5150557
  }
]
